city,latitude,longitude,max temperature,humidity,cloudiness,wind speed,country,date
rocha,-34.4833,-54.3333,71.19,76,93,7.43,UY,1658948126
bredasdorp,-34.5322,20.0403,51.01,91,0,6.96,ZA,1658948315
khanpur,28.6453,70.6567,90.54,64,100,8.93,PK,1658948291
rikitea,-23.1203,-134.9692,73.9,74,100,13.98,PF,1658948316
perez,-32.9983,-60.7679,66.09,82,100,11.5,AR,1658948316
hasaki,35.7333,140.8333,77.4,90,100,15.61,JP,1658948701
itatiaia,-22.4961,-44.5633,78.76,45,5,5.73,BR,1658948703
tazovskiy,67.4667,78.7,44.31,90,11,7.9,RU,1658948704
isangel,-19.55,169.2667,74.7,90,100,10.16,VU,1658948412
hobart,-42.8794,147.3294,46.26,78,75,8.05,AU,1658948560
yanam,16.7333,82.2167,78.85,88,91,1.57,IN,1658948708
santa maria,-29.6842,-53.8069,77.47,67,100,2.91,BR,1658948667
atar,20.5169,-13.0499,107.98,11,0,13.09,MR,1658948712
georgetown,5.4112,100.3354,80.53,84,20,3.44,MY,1658948467
saint-lo,49.1162,-1.0903,70.23,58,99,7.99,FR,1658948715
nishihara,26.1842,127.7558,81.68,89,0,6.91,JP,1658948716
luderitz,-26.6481,15.1594,57.74,72,0,7.0,NA,1658948718
cape town,-33.9258,18.4232,59.92,72,0,7.0,ZA,1658948719
busselton,-33.65,115.3333,52.2,74,7,7.61,AU,1658948722
lorengau,-2.0226,147.2712,81.7,77,53,9.93,PG,1658948653
mount gambier,-37.8333,140.7667,39.11,100,92,4.61,AU,1658948725
severo-kurilsk,50.6789,156.125,51.87,89,41,6.91,RU,1658948726
mataura,-46.1927,168.8643,47.48,99,100,1.79,NZ,1658948727
amahai,-3.3333,128.9167,76.87,90,92,8.59,ID,1658948729
hilo,19.7297,-155.09,88.29,95,28,1.99,US,1658948602
cabo san lucas,22.8909,-109.9124,91.18,70,16,4.0,MX,1658948013
palmer,42.1584,-72.3287,85.62,45,75,6.91,US,1658948735
souillac,-20.5167,57.5167,68.38,88,75,11.5,MU,1658948466
khalkhal,37.6189,48.5258,65.57,76,1,5.32,IR,1658948738
ossora,59.2353,163.0719,54.12,81,100,8.05,RU,1658948739
ardabil,38.2498,48.2933,66.18,82,0,1.39,IR,1658948741
minnedosa,50.2453,-99.8436,63.0,67,32,14.74,CA,1658948742
makakilo city,21.3469,-158.0858,81.01,57,40,14.97,US,1658948743
bluff,-46.6,168.3333,47.8,88,100,11.97,NZ,1658948644
tuatapere,-46.1333,167.6833,43.93,95,100,1.63,NZ,1658948747
ambulu,-8.345,113.6058,72.37,90,24,4.21,ID,1658948749
oudtshoorn,-33.5907,22.2014,53.1,77,0,2.66,ZA,1658948486
punta arenas,-53.15,-70.9167,41.11,65,69,24.81,CL,1658948527
east london,-33.0153,27.9116,65.26,73,100,5.03,ZA,1658948722
clyde river,70.4692,-68.5914,41.23,100,100,6.91,CA,1658948565
albany,42.6001,-73.9662,82.36,51,100,1.16,US,1658948631
moberly,39.4184,-92.4382,82.38,70,40,7.0,US,1658948756
tiksi,71.6872,128.8694,53.31,87,44,6.06,RU,1658948758
linhai,28.85,121.1167,75.78,92,90,1.72,CN,1658948759
iracoubo,5.4802,-53.2011,82.99,74,76,6.58,GF,1658948475
siegen,50.8667,8.0333,62.83,57,64,6.91,DE,1658948762
lubango,-14.9172,13.4925,59.13,47,47,3.74,AO,1658948632
ushuaia,-54.8,-68.3,42.46,61,40,4.61,AR,1658948766
baruun-urt,46.6806,113.2792,52.99,80,1,1.92,MN,1658948472
tungor,53.3808,142.9564,50.92,95,12,7.05,RU,1658948769
derzhavinsk,51.1,66.3167,66.99,77,15,15.46,KZ,1658948770
hermanus,-34.4187,19.2345,55.8,80,0,11.52,ZA,1658948773
yellowknife,62.456,-114.3525,66.56,59,100,3.0,CA,1658948646
bras-panon,-20.9967,55.6782,71.22,73,6,7.2,RE,1658948776
adrar,20.5022,-10.0711,108.36,8,4,19.46,MR,1658948540
ahuimanu,21.4447,-157.8378,82.2,66,75,14.97,US,1658948778
broken hill,-31.95,141.4333,41.63,71,55,3.27,AU,1658948780
asmara,15.3333,38.9333,62.47,73,100,2.84,ER,1658948781
butaritari,3.0707,172.7902,81.39,75,0,17.18,KI,1658948722
kudahuvadhoo,2.6708,72.8944,82.54,76,98,14.9,MV,1658948784
faanui,-16.4833,-151.75,78.28,76,17,21.0,PF,1658948785
ivolginsk,51.7492,107.2837,53.26,87,100,8.95,RU,1658948787
mar del plata,-38.0023,-57.5575,55.09,98,100,1.99,AR,1658948650
codrington,-38.2667,141.9667,45.63,76,72,6.11,AU,1658948789
port hedland,-20.3167,118.5667,59.05,63,3,8.05,AU,1658948565
san jose,37.3394,-121.895,84.54,55,20,3.44,US,1658948686
sitka,57.0531,-135.33,62.49,67,20,5.75,US,1658948793
boyle,37.6334,-84.8666,89.02,66,75,8.05,US,1658948795
boysun,38.2061,67.1986,85.5,24,0,7.45,UZ,1658948796
geraldton,-28.7667,114.6,57.61,67,75,10.36,AU,1658948562
esso,55.9333,158.7,54.18,93,100,4.5,RU,1658948799
adjumani,3.3779,31.7909,69.66,86,97,2.28,UG,1658948800
ocampo,21.65,-101.5,75.78,28,42,6.08,MX,1658948802
castro,-24.7911,-50.0119,71.01,50,90,4.54,BR,1658948803
puerto ayora,-0.7393,-90.3518,78.76,91,71,5.99,EC,1658948804
port alfred,-33.5906,26.891,64.06,70,99,4.97,ZA,1658948806
vestmanna,62.1564,-7.1664,50.92,100,100,9.22,FO,1658948807
jamestown,42.097,-79.2353,77.02,62,100,8.05,US,1658948725
buraydah,26.326,43.975,94.41,10,100,6.62,SA,1658948810
saint george,37.1041,-113.5841,96.64,41,0,5.01,US,1658948811
saint-pierre,-21.3393,55.4781,70.92,82,0,5.75,RE,1658948813
pryazha,61.6926,33.6216,67.23,90,100,3.94,RU,1658948814
new norfolk,-42.7826,147.0587,45.91,79,28,3.0,AU,1658948582
llata,-9.4167,-76.7833,63.93,43,7,9.98,PE,1658948818
ambon,-3.6954,128.1814,80.74,83,75,4.61,ID,1658948820
moose factory,51.2585,-80.6094,64.38,94,100,11.5,CA,1658948821
port macquarie,-31.4333,152.9167,42.89,72,100,7.16,AU,1658948729
nikolskoye,59.7035,30.7861,64.29,90,100,4.85,RU,1658948824
husavik,66.0449,-17.3389,60.3,68,100,17.09,IS,1658948825
fez,34.0372,-4.9998,89.85,22,0,9.22,MA,1658948827
esperance,-33.8667,121.9,53.89,79,12,13.44,AU,1658948828
gucheng,35.9115,111.3192,70.56,76,0,3.42,CN,1658948830
ankazobe,-18.3167,47.1167,54.79,73,0,3.87,MG,1658948831
inirida,3.8653,-67.9239,84.2,66,61,2.53,CO,1658948832
kodiak,57.79,-152.4072,60.31,55,0,9.22,US,1658948834
pocone,-16.2567,-56.6228,98.01,15,0,4.94,BR,1658948835
saskylakh,71.9167,114.0833,63.54,93,99,13.58,RU,1658948837
ilulissat,69.2167,-51.1,44.62,87,75,5.75,GL,1658948839
arraial do cabo,-22.9661,-42.0278,75.06,69,0,19.57,BR,1658948841
namibe,-15.1961,12.1522,64.08,89,30,1.63,AO,1658948842
muroto,33.2833,134.15,80.35,87,50,7.16,JP,1658948844
obera,-27.4871,-55.1199,81.9,41,97,3.8,AR,1658948845
tumbes,-3.5667,-80.4414,78.75,69,40,11.5,PE,1658948847
baghdad,33.3406,44.4009,93.11,16,0,8.05,IQ,1658948772
atuona,-9.8,-139.0333,77.25,67,0,20.89,PF,1658948849
igrim,63.1906,64.4162,56.19,58,0,3.49,RU,1658948851
chapais,49.7834,-74.8492,77.97,43,95,3.42,CA,1658948852
tasiilaq,65.6145,-37.6368,44.76,92,88,3.89,GL,1658948854
coquimbo,-29.9533,-71.3436,58.73,77,0,11.5,CL,1658948792
upernavik,72.7868,-56.1549,39.97,83,100,2.73,GL,1658948856
putai,46.6579,1.9863,74.59,36,0,7.02,FR,1658948858
ihosy,-22.4,46.1167,59.65,87,10,6.78,MG,1658948859
vaini,-21.2,-175.2,74.84,67,13,13.31,TO,1658948577
anahuac,27.2333,-100.15,97.03,33,100,18.3,MX,1658948862
quelimane,-17.8786,36.8883,63.09,75,0,4.09,MZ,1658948863
ust-tsilma,65.441,52.1498,61.97,60,23,5.64,RU,1658948865
lagoa,39.05,-27.9833,73.17,89,100,10.92,PT,1658948866
wuwei,37.9281,102.6414,69.55,24,2,7.02,CN,1658948867
ilhabela,-23.7781,-45.3581,71.69,77,14,4.54,BR,1658948869
shyryayeve,47.3805,30.1964,77.07,52,18,9.82,UA,1658948870
torbay,47.6666,-52.7314,68.27,96,100,9.55,CA,1658948872
washington,47.5001,-120.5015,96.33,26,2,3.36,US,1658948699
barrow,71.2906,-156.7887,33.73,97,100,14.12,US,1658948646
road town,18.4167,-64.6167,86.04,66,40,11.5,VG,1658948876
kavieng,-2.5744,150.7967,82.29,75,68,17.74,PG,1658948878
ribeira grande,38.5167,-28.7,77.4,83,75,18.41,PT,1658948880
kaeo,-35.1,173.7833,55.33,95,23,15.64,NZ,1658948881
tiznit,29.5833,-9.5,82.17,36,0,7.92,MA,1658948883
pasighat,28.0667,95.3333,76.5,95,56,2.59,IN,1658948884
flinders,-34.5833,150.8552,55.18,67,1,13.0,AU,1658948885
wilmington island,32.0036,-80.9737,93.09,62,92,12.41,US,1658948887
mamallapuram,12.6264,80.1722,85.05,77,100,7.34,IN,1658948888
sur,22.5667,59.5289,82.2,72,17,20.18,OM,1658948890
mutoko,-17.397,32.2268,57.15,56,0,7.14,ZW,1658948891
biak,-0.9131,122.8766,74.95,90,99,6.69,ID,1658948893
siocon,7.7061,122.1353,78.46,84,100,1.63,PH,1658948894
saldanha,-33.0117,17.9442,56.57,78,0,7.0,ZA,1658948896
thompson,55.7435,-97.8558,54.52,89,100,9.55,CA,1658948858
sorland,67.667,12.6934,51.66,80,90,19.04,NO,1658948898
cidreira,-30.1811,-50.2056,65.25,76,97,6.96,BR,1658948900
carnarvon,-24.8667,113.6333,69.53,53,100,1.5,AU,1658948638
talnakh,69.4865,88.3972,59.85,54,88,2.82,RU,1658948788
pevek,69.7008,170.3133,34.47,91,100,4.07,RU,1658948904
khatanga,71.9667,102.5,58.86,71,100,2.91,RU,1658948905
tigre,-34.426,-58.5796,67.24,92,100,1.99,AR,1658948908
hamilton,39.1834,-84.5333,83.25,83,75,12.66,US,1658948909
marzuq,14.4,46.4667,84.47,47,71,7.94,YE,1658948910
vangaindrano,-23.35,47.6,66.42,84,40,0.72,MG,1658948912
poum,-20.2333,164.0167,72.18,76,95,17.34,NC,1658948866
calmar,53.2668,-113.8187,83.35,57,15,3.09,CA,1658948915
ishigaki,24.3448,124.1572,85.3,72,20,9.04,JP,1658948916
egvekinot,66.3167,-179.1667,38.03,77,100,6.67,RU,1658948917
parbatipur,25.6649,88.9247,84.25,73,98,4.83,BD,1658948919
lagunas,-5.2269,-75.6753,88.02,53,93,1.7,PE,1658948922
umea,63.8284,20.2597,60.73,55,0,12.66,SE,1658948923
moa,20.6569,-74.9403,85.32,67,10,12.55,CU,1658948924
asau,46.4333,26.4,72.52,84,14,4.83,RO,1658948926
yeppoon,-23.1333,150.7333,42.58,60,0,4.52,AU,1658948928
westport,41.1415,-73.3579,88.3,51,0,10.36,US,1658948654
pokosnoye,55.5258,101.0536,59.09,70,100,4.7,RU,1658948932
sao joao batista,-27.2761,-48.8494,74.66,74,97,3.78,BR,1658948682
srednekolymsk,67.45,153.6833,40.73,73,83,8.61,RU,1658948935
port elizabeth,-33.918,25.5701,59.31,83,100,2.37,ZA,1658948936
motril,36.7507,-3.5179,96.28,48,0,2.3,ES,1658948938
maloy,61.9353,5.1136,55.13,73,47,10.25,NO,1658948939
idlib,35.9306,36.6339,81.57,33,0,7.87,SY,1658948940
ramos arizpe,25.55,-100.9667,88.09,33,40,11.5,MX,1658948942
grand gaube,-20.0064,57.6608,71.38,73,19,3.0,MU,1658948943
mildura,-34.2,142.15,42.96,87,83,7.11,AU,1658948945
miraflores,19.2167,-98.8083,73.02,59,83,1.5,MX,1658948946
zhuanghe,39.7008,122.9911,73.76,88,45,6.6,CN,1658948948
bontang,0.1333,117.5,77.5,88,99,3.67,ID,1658948950
san quintin,30.4833,-115.95,73.9,67,56,12.93,MX,1658948952
bonavista,48.6499,-53.1147,62.83,94,67,10.54,CA,1658948953
preobrazheniye,42.9019,133.9064,69.62,95,100,3.71,RU,1658948955
palu,-0.8917,119.8707,75.4,96,70,2.53,ID,1658948958
kaitangata,-46.2817,169.8464,44.33,95,100,4.83,NZ,1658948959
nouadhibou,20.931,-17.0347,70.54,88,1,25.84,MR,1658948960
tezu,27.9167,96.1667,75.45,97,91,2.84,IN,1658948962
saryg-sep,51.5,95.6,47.26,86,100,3.27,RU,1658948964
qaanaaq,77.484,-69.3632,40.57,79,95,7.94,GL,1658948966
victoria,22.2855,114.1577,86.38,80,0,5.01,HK,1658948899
koungheul,13.9833,-14.8,84.88,71,96,12.37,SN,1658948968
lebu,-37.6167,-73.65,54.28,73,44,11.16,CL,1658948970
loandjili,-4.7561,11.8578,69.98,88,10,6.67,CG,1658948971
terrace,54.5163,-128.6035,84.67,50,0,0.96,CA,1658948973
khilok,51.3674,110.4676,54.48,78,100,9.57,RU,1658948974
avarua,-21.2078,-159.775,73.45,73,40,9.22,CK,1658948976
jutai,-5.1833,-68.9,95.31,33,33,4.56,BR,1658948977
kapaa,22.0752,-159.319,82.72,72,75,13.8,US,1658948978
chokurdakh,70.6333,147.9167,48.16,56,99,9.73,RU,1658948980
vaitape,-16.5167,-151.75,78.26,76,16,21.12,PF,1658948982
longyearbyen,78.2186,15.6401,49.84,66,40,18.41,SJ,1658948786
tuktoyaktuk,69.4541,-133.0374,50.72,64,96,7.14,CA,1658948985
bethel,41.3712,-73.414,87.04,47,40,10.36,US,1658948987
shieli,44.1667,66.75,80.51,30,0,9.44,KZ,1658948988
rock sound,24.9,-76.2,82.04,74,0,11.12,BS,1658948919
san patricio,28.017,-97.5169,96.17,45,100,15.26,US,1658948991
souris,49.6172,-100.2612,66.74,63,31,14.29,CA,1658948992
tabuk,17.4189,121.4443,74.34,93,100,1.72,PH,1658948994
okha,53.5739,142.9478,52.11,93,13,7.94,RU,1658948995
buala,-8.145,159.5921,78.6,80,22,5.59,SB,1658948998
staryy nadym,65.6118,72.6842,50.59,77,7,3.13,RU,1658948999
maragogi,-9.0122,-35.2225,76.32,79,27,9.08,BR,1658949001
yining,29.0361,114.5636,79.23,71,100,1.86,CN,1658949002
shubarshi,48.5872,57.1869,74.59,54,5,6.71,KZ,1658949004
lasa,46.6166,10.7002,65.35,87,34,1.3,IT,1658949005
sao joao da barra,-21.6403,-41.0511,77.09,66,0,12.35,BR,1658948759
xai-xai,-25.0519,33.6442,63.52,82,0,8.95,MZ,1658949008
mehamn,71.0357,27.8492,51.75,100,100,9.22,NO,1658949009
ukiah,39.1502,-123.2078,98.44,26,0,0.0,US,1658949011
college,64.8569,-147.8028,54.07,86,100,6.91,US,1658949012
virovitica,45.8319,17.3839,78.51,36,99,3.2,HR,1658949014
moba,33.2288,105.0179,59.04,87,0,3.2,CN,1658949015
provideniya,64.3833,-173.3,46.06,78,100,6.6,RU,1658949017
shimoda,34.6667,138.95,77.11,92,88,6.87,JP,1658949018
nioro,13.35,-15.75,79.81,83,100,9.26,GM,1658949020
nuuk,64.1835,-51.7216,44.69,82,18,18.86,GL,1658949021
bathsheba,13.2167,-59.5167,88.41,95,40,20.71,BB,1658949023
cayenne,4.9333,-52.3333,84.09,4,75,4.61,GF,1658949024
gizo,-8.103,156.8419,81.09,76,43,11.39,SB,1658949025
yarkovo,57.4028,67.0786,60.94,67,100,10.29,RU,1658949027
williams lake,52.1415,-122.1445,91.06,38,12,1.99,CA,1658949028
acapulco,16.8634,-99.8901,87.62,66,100,5.75,MX,1658948927
glendive,47.1053,-104.7125,78.42,33,40,16.11,US,1658949031
saint-philippe,-21.3585,55.7679,66.22,75,5,5.84,RE,1658949032
bardiyah,31.7561,25.0865,80.11,68,0,10.63,LY,1658949034
johi,26.6921,67.6133,89.83,65,86,4.68,PK,1658949035
gat,31.61,34.7642,82.81,100,0,7.05,IL,1658949037
vestmannaeyjar,63.4427,-20.2734,53.02,95,100,15.86,IS,1658949038
sept-iles,50.2001,-66.3821,66.06,79,100,5.01,CA,1658949041
farafangana,-22.8167,47.8333,67.48,80,0,2.21,MG,1658949042
umarizal,-5.9906,-37.8144,89.33,35,67,13.42,BR,1658949046
chalons-en-champagne,48.9539,4.3672,71.67,51,100,8.28,FR,1658949047
raudeberg,61.9875,5.1352,54.27,72,52,9.42,NO,1658949049
hithadhoo,-0.6,73.0833,81.82,76,100,10.04,MV,1658949050
saint-augustin,51.226,-58.6502,64.63,77,99,4.27,CA,1658949052
guerrero negro,27.9769,-114.0611,78.98,53,7,10.2,MX,1658948877
pierre,44.3683,-100.351,85.12,45,0,6.91,US,1658948812
boromo,11.75,-2.9333,83.3,64,88,9.55,BF,1658949055
chuy,-33.6971,-53.4616,64.99,83,99,6.13,UY,1658949057
kalabo,-14.97,22.6814,60.76,33,3,5.77,ZM,1658949058
gao,16.6362,1.637,97.48,28,0,14.97,ML,1658949060
narsaq,60.9167,-46.05,55.62,76,20,7.92,GL,1658949061
zigong,29.3416,104.7769,72.91,93,69,3.33,CN,1658949064
broome,42.2506,-75.833,85.62,51,40,8.05,US,1658949065
spring hill,28.4769,-82.5255,95.05,68,20,5.75,US,1658949067
seymchan,62.8833,152.4333,51.62,63,6,5.23,RU,1658949068
dudinka,69.4058,86.1778,58.62,79,93,10.07,RU,1658949070
bac lieu,9.285,105.7244,80.98,81,100,6.58,VN,1658948965
fortuna,40.5982,-124.1573,71.92,72,28,5.01,US,1658949031
corning,42.1428,-77.0547,83.17,57,75,10.36,US,1658949074
harboore,56.6175,8.1807,56.17,72,23,22.97,DK,1658949075
ambilobe,-13.2,49.05,68.65,83,79,3.62,MG,1658949077
farias brito,-6.9306,-39.5656,88.83,31,38,9.91,BR,1658949078
ambunti,-4.2365,142.8448,72.91,99,29,0.78,PG,1658949080
tonj,7.2737,28.6822,70.41,94,52,4.36,SS,1658949081
rio gallegos,-51.6226,-69.2181,32.05,59,75,8.05,AR,1658949083
bandarbeyla,9.4942,50.8122,76.86,84,6,30.85,SO,1658949084
cherskiy,68.75,161.3,45.95,62,27,2.64,RU,1658949085
katsuura,35.1333,140.3,79.02,91,100,13.6,JP,1658949087
naze,28.3667,129.4833,79.81,84,99,17.76,JP,1658949088
norman wells,65.282,-126.8329,64.26,40,100,3.15,CA,1658948936
nizhniy kuranakh,58.8353,125.4869,61.47,79,5,2.17,RU,1658949091
aklavik,68.2191,-135.0107,58.42,45,46,18.28,CA,1658949094
pontian kecil,1.4801,103.3899,78.62,89,52,4.41,MY,1658949095
pangnirtung,66.1451,-65.7125,58.66,58,26,4.12,CA,1658949096
gilgit,35.9221,74.3087,82.11,59,61,0.56,PK,1658949013
atsugi,35.4389,139.3597,82.85,83,99,1.99,JP,1658949100
parrita,9.5201,-84.3225,81.93,72,57,6.13,CR,1658949102
tautira,-17.7333,-149.15,76.57,76,100,23.58,PF,1658949103
gua musang,4.8823,101.9644,73.27,99,100,1.97,MY,1658948890
soe,-9.8607,124.284,60.42,84,96,6.58,ID,1658949106
pacifica,37.6138,-122.4869,79.0,80,20,14.97,US,1658948877
mahebourg,-20.4081,57.7,71.26,88,75,11.5,MU,1658949110
alice springs,-23.7,133.8833,29.75,64,0,3.44,AU,1658949112
ponta do sol,32.6667,-17.1,75.7,76,0,6.24,PT,1658949114
langatian,8.5208,123.2324,76.91,91,100,4.34,PH,1658949115
ushumun,52.7833,126.5333,65.41,99,89,5.82,RU,1658949117
prince george,53.9166,-122.753,84.25,52,0,1.99,CA,1658949118
marawi,7.9986,124.2928,69.01,93,100,2.37,PH,1658949119
beringovskiy,63.05,179.3167,47.7,89,38,5.08,RU,1658949121
andrelandia,-21.7397,-44.3092,75.43,34,0,2.55,BR,1658949122
beyneu,45.3167,55.2,86.67,30,11,12.39,KZ,1658949124
ongandjera,-17.8833,15.0667,69.53,25,62,5.57,NA,1658949125
kavaratti,10.5669,72.642,80.64,80,100,18.86,IN,1658949127
sampit,-2.5333,112.95,73.27,99,100,0.65,ID,1658949128
ulenje,-8.9333,33.6833,50.68,89,32,5.08,TZ,1658949130
filadelfia,39.9523,-75.1638,89.04,54,75,10.36,US,1658948849
sao raimundo nonato,-9.0153,-42.6994,89.13,27,11,8.88,BR,1658949134
port hardy,50.6996,-127.4199,67.66,78,66,4.88,CA,1658948936
komsomolskiy,40.4272,71.7189,84.92,42,9,6.91,UZ,1658949137
saint-francois,46.4154,3.9054,78.24,34,0,4.61,FR,1658948939
salta,-24.7859,-65.4117,83.57,45,100,4.0,AR,1658949140
pinar del rio,22.4175,-83.6981,91.9,51,15,13.0,CU,1658949142
margate,51.3813,1.3862,63.9,69,100,3.0,GB,1658949143
trelew,-43.249,-65.3051,48.51,66,10,12.26,AR,1658949019
caravelas,-17.7125,-39.2481,75.31,65,0,5.95,BR,1658949146
kirakira,-10.4544,161.9205,77.4,85,39,5.37,SB,1658949147
pisco,-13.7,-76.2167,64.45,77,20,9.22,PE,1658949149
yulara,-25.2406,130.9889,42.48,39,0,8.55,AU,1658949150
mana,5.6592,-53.7767,83.46,73,37,6.93,GF,1658949152
mbigou,-1.9005,11.906,70.84,64,92,2.33,GA,1658949154
oistins,13.0667,-59.5333,87.89,62,40,20.71,BB,1658949156
tomigusuku,26.185,127.675,82.17,89,1,6.91,JP,1658949157
salinopolis,-0.6136,-47.3561,81.72,75,57,11.56,BR,1658949159
korzhevskiy,45.1941,37.7195,66.65,73,0,3.09,RU,1658949160
lamar,33.6668,-95.5836,106.99,39,20,5.75,US,1658949162
lincoln,40.8,-96.667,89.29,44,0,4.61,US,1658949046
ust-kulom,61.6864,53.6902,56.62,72,6,1.39,RU,1658949164
hambantota,6.1241,81.1185,78.84,82,92,4.16,LK,1658949166
borogontsy,62.6683,131.1683,65.19,72,0,2.3,RU,1658949167
oyon,-10.6681,-76.7731,59.95,31,12,8.86,PE,1658949169
baoma,31.4859,106.1128,74.52,84,2,1.45,CN,1658949170
alofi,-19.0595,-169.9187,76.15,77,5,19.53,NU,1658949171
salinas,36.6777,-121.6555,74.01,64,0,8.05,US,1658949173
sinnar,13.5691,33.5672,75.96,81,100,8.48,SD,1658949174
gladstone,-23.85,151.25,46.33,66,0,4.61,AU,1658949177
requena,39.4883,-1.1004,75.79,71,5,10.74,ES,1658949178
ruda nad moravou,49.981,16.8778,66.22,76,59,3.98,CZ,1658949072
airai,-8.9266,125.4092,51.19,83,54,4.16,TL,1658949181
launceston,-41.45,147.1667,43.81,91,40,2.3,AU,1658949182
sumbe,-11.2061,13.8437,69.01,86,81,5.03,AO,1658949184
krivosheino,57.3431,83.9261,61.59,96,100,5.64,RU,1658949185
camacupa,-12.0167,17.4833,62.89,24,100,0.89,AO,1658949187
gamba,-2.65,10.0,70.57,88,52,7.18,GA,1658949189
san cristobal,7.7669,-72.225,80.78,56,44,7.0,VE,1658949192
dhana,23.75,78.85,76.33,89,53,5.86,IN,1658949194
alta floresta,-9.8756,-56.0861,96.04,18,7,5.01,BR,1658949195
jiaocheng,24.6774,116.1389,77.23,79,16,1.5,CN,1658949197
mareeba,-17.0,145.4333,63.32,91,27,2.08,AU,1658949198
bambous virieux,-20.3428,57.7575,71.22,88,75,11.5,MU,1658949200
shelburne,44.0787,-80.2041,78.76,63,66,7.94,CA,1658949059
san policarpo,12.1791,125.5072,78.13,90,100,5.28,PH,1658949202
rafai,4.95,23.9167,68.2,99,70,1.57,CF,1658949078
anchorage,61.2181,-149.9003,61.68,71,0,6.91,US,1658949097
bayreuth,49.9481,11.5783,66.51,61,33,4.12,DE,1658949208
mandalgovi,45.7625,106.2708,59.97,52,100,11.45,MN,1658949209
chiredzi,-21.05,31.6667,63.72,39,0,5.3,ZW,1658949210
burnie,-41.0667,145.9167,44.94,71,11,9.82,AU,1658949212
iqaluit,63.7506,-68.5145,49.28,64,71,5.35,CA,1658949215
korla,41.7597,86.1469,86.36,21,98,14.85,CN,1658949216
abu samrah,35.3029,37.1841,86.41,28,0,9.04,SY,1658949217
vlakhopoulon,37.0333,21.7833,81.52,71,0,1.97,GR,1658949219
dikson,73.5069,80.5464,41.49,94,94,14.0,RU,1658949220
poronaysk,49.2167,143.1167,55.83,97,100,6.04,RU,1658949222
totolapan,18.5167,-96.1833,88.29,62,41,2.77,MX,1658949223
san felipe,10.3399,-68.7425,87.13,52,100,8.41,VE,1658949225
kualakapuas,-3.0091,114.3876,73.44,98,94,2.39,ID,1658949226
kruisfontein,-34.0033,24.7314,50.88,90,3,2.68,ZA,1658949227
beloha,-25.1667,45.05,61.36,76,0,5.82,MG,1658949229
hami,42.8,93.45,85.08,14,68,4.85,CN,1658949230
coro,11.4045,-69.6734,87.22,60,20,21.5,VE,1658949232
sanchez,19.2281,-69.6137,84.22,83,40,4.61,DO,1658949233
savannah bight,16.45,-85.85,82.85,74,47,19.13,HN,1658949235
thinadhoo,0.5333,72.9333,82.83,74,100,12.03,MV,1658949236
finschhafen,-6.6024,147.8681,77.72,82,98,8.48,PG,1658949238
zasheyek,67.4066,32.5499,55.94,83,8,5.46,RU,1658949239
seybaplaya,19.65,-90.6667,87.26,66,85,11.45,MX,1658949240
porto santo,33.072,-16.3415,73.78,73,75,18.41,PT,1658949242
hildesheim,52.1508,9.9511,66.87,55,38,6.31,DE,1658949243
bambanglipuro,-7.95,110.2833,73.42,92,100,2.8,ID,1658949155
bay roberts,47.5999,-53.2648,65.28,94,98,9.71,CA,1658949246
santa helena de goias,-17.8136,-50.5969,85.96,18,0,4.38,BR,1658949247
avera,33.194,-82.5271,94.55,31,100,7.76,US,1658949158
taoudenni,22.6783,-3.9836,107.98,6,0,15.23,ML,1658949250
maniitsoq,65.4167,-52.9,43.27,88,47,14.38,GL,1658949252
najran,17.4924,44.1277,84.81,38,100,7.52,SA,1658949253
shache,38.4167,77.2406,90.16,16,4,5.32,CN,1658949254
dovolnoye,54.4958,79.6671,66.83,70,5,7.47,RU,1658949256
gunjur,13.2019,-16.7339,80.76,80,100,14.65,GM,1658949257
campo verde,-20.4167,-54.0667,89.73,18,4,2.57,BR,1658949259
labuhan,-6.8844,112.2051,76.28,86,13,6.22,ID,1658949260
homberg,51.0333,9.4,65.21,39,5,9.22,DE,1658949262
muisne,0.6,-80.0333,74.88,86,100,8.05,EC,1658949263
inhambane,-23.865,35.3833,65.26,73,0,6.53,MZ,1658949266
strezhevoy,60.7333,77.5889,56.79,74,100,8.63,RU,1658949267
kihei,20.785,-156.4656,84.22,64,20,17.27,US,1658949269
sorong,-0.8833,131.25,77.31,90,21,5.17,ID,1658949270
aleksandrov gay,50.147,48.5704,76.98,50,71,4.92,RU,1658949272
takoradi,4.8845,-1.7554,75.99,86,100,13.44,GH,1658949273
calama,-22.4667,-68.9333,73.89,9,0,21.85,CL,1658949275
kalemie,-5.9475,29.1947,72.41,60,32,0.96,CD,1658949276
muhldorf,48.25,12.5333,71.01,62,99,5.53,DE,1658949278
north bend,43.4065,-124.2243,79.25,88,0,10.36,US,1658949279
bosaso,11.2842,49.1816,88.97,49,71,2.64,SO,1658949281
puerto escondido,15.85,-97.0667,86.83,62,40,9.22,MX,1658949282
weligama,5.9667,80.4167,76.37,91,100,6.26,LK,1658949285
grindavik,63.8424,-22.4338,53.55,100,100,18.41,IS,1658949286
dwarka,22.2394,68.9678,81.77,81,98,13.96,IN,1658949287
riyadh,24.6877,46.7219,98.74,11,100,16.35,SA,1658949063
chaozhou,23.6651,116.6379,79.86,85,27,1.25,CN,1658949290
tarko-sale,64.9225,77.785,51.8,80,13,10.96,RU,1658949291
show low,34.2542,-110.0298,77.07,58,40,6.91,US,1658949293
acoyapa,11.9703,-85.1711,89.69,68,96,11.61,NI,1658949294
doha,25.2867,51.5333,91.38,70,20,13.8,QA,1658949296
kapit,2.0167,112.9333,73.54,99,100,1.14,MY,1658949297
yinchuan,38.4681,106.2731,75.79,34,1,8.23,CN,1658949102
karakol,42.4907,78.3936,68.11,36,78,4.45,KG,1658949207
dehloran,32.6941,47.2679,98.15,7,0,8.79,IR,1658949302
bengkulu,-3.8004,102.2655,76.06,86,25,2.59,ID,1658949304
kalmar,56.6616,16.3616,60.96,89,75,6.91,SE,1658949305
tibiri,13.5627,7.0485,86.54,57,100,19.35,NE,1658949307
atasu,48.6814,71.6433,76.95,34,73,5.46,KZ,1658949308
auki,-8.7676,160.7034,75.78,86,11,3.78,SB,1658949310
maningrida,-12.0667,134.2667,60.01,94,12,9.04,AU,1658949311
charters towers,-20.1,146.2667,51.89,49,0,9.73,AU,1658949312
yurimaguas,-5.9,-76.0833,89.76,58,40,4.61,PE,1658949314
blora,-6.9698,111.4186,73.51,85,65,4.97,ID,1658949162
isla mujeres,21.2311,-86.731,89.65,66,13,11.27,MX,1658949317
otjimbingwe,-22.35,16.1333,65.68,14,1,3.65,NA,1658949318
vvedenskoye,55.4753,65.0847,61.16,67,100,10.29,RU,1658949320
leshukonskoye,64.8989,45.7622,64.54,70,100,7.16,RU,1658949321
samarai,-10.6167,150.6667,78.24,87,100,15.86,PG,1658949322
ixtapa,20.7,-105.2,88.83,58,100,3.44,MX,1658949324
ngorongoro,-3.2397,35.4875,49.06,87,100,4.76,TZ,1658949325
segou,13.4317,-6.2157,88.23,57,45,18.86,ML,1658949327
kieta,-6.2167,155.6333,77.83,82,26,8.48,PG,1658949328
itarema,-2.9248,-39.9167,80.67,73,80,17.38,BR,1658949330
riberalta,-10.9833,-66.1,93.4,43,40,5.75,BO,1658949331
sabang,5.8933,95.3214,81.03,74,100,5.08,ID,1658949333
grevesmuhlen,53.8667,11.1833,61.79,65,3,12.86,DE,1658949334
saint-paul,-21.0096,55.2707,70.36,78,41,1.7,RE,1658949336
liepaja,56.5419,21.0367,60.78,77,75,12.66,LV,1658949337
port-gentil,-0.7193,8.7815,75.16,88,40,10.36,GA,1658949339
guarapari,-20.6667,-40.4975,74.89,61,0,10.71,BR,1658949340
leningradskiy,69.3833,178.4167,36.86,87,98,1.68,RU,1658949341
anadyr,64.75,177.4833,48.7,81,40,8.95,RU,1658949343
kadoma,34.7333,135.5833,81.18,76,14,4.61,JP,1658949344
baiyin,36.5583,104.2081,70.61,34,33,2.93,CN,1658949346
sao paulo de olivenca,-3.3783,-68.8725,85.87,68,36,1.07,BR,1658949075
hoa binh,20.8133,105.3383,77.23,96,100,3.04,VN,1658949259
lahij,13.1667,44.5833,91.02,43,70,4.14,YE,1658949351
wanxian,30.8039,108.3897,74.14,94,68,1.68,CN,1658949352
otane,-39.8833,176.6333,56.01,86,100,3.89,NZ,1658949355
nong phai,15.9903,101.0618,77.81,87,14,1.88,TH,1658949357
koslan,63.4564,48.8989,59.32,64,71,5.61,RU,1658949358
bousso,10.4795,16.7117,73.78,88,100,4.38,TD,1658949360
lompoc,34.6391,-120.4579,84.69,70,0,10.36,US,1658949095
bilkha,21.4333,70.6,79.21,87,100,6.58,IN,1658949362
shingu,33.7333,135.9833,76.91,93,8,3.36,JP,1658949319
sao felix do xingu,-6.6447,-51.995,94.62,23,1,4.56,BR,1658949287
brownsville,25.9018,-97.4975,96.75,52,0,20.71,US,1658949312
nybro,56.7446,15.9071,60.04,93,100,5.21,SE,1658949367
tokur,53.1333,132.9,56.82,96,100,2.62,RU,1658949369
walsall,52.5853,-1.984,65.82,80,100,3.0,GB,1658949103
barkhan,29.8977,69.5256,79.86,71,100,2.19,PK,1658949372
erdenet,49.0333,104.0833,49.6,89,100,1.19,MN,1658949373
teguise,29.0605,-13.564,71.82,73,20,26.46,ES,1658949375
yeniseysk,58.4497,92.1703,54.86,95,47,4.21,RU,1658949376
shubarkuduk,49.1447,56.4872,73.85,55,3,5.32,KZ,1658949378
mikhaylovka,50.06,43.2379,72.7,58,80,3.15,RU,1658949379
las guacamayas,18.0167,-102.2167,87.6,56,100,7.18,MX,1658949381
klaksvik,62.2266,-6.589,52.72,85,100,12.55,FO,1658949382
gimli,50.6336,-96.9907,60.67,80,100,17.11,CA,1658949383
marondera,-18.1853,31.5519,51.1,51,27,3.09,ZW,1658949385
ulladulla,-35.35,150.4667,48.29,77,0,6.87,AU,1658949386
muzaffarabad,34.37,73.4711,78.03,93,99,2.08,PK,1658949388
tchollire,8.4022,14.1698,70.56,95,100,3.29,CM,1658949389
turbo,8.0937,-76.7269,85.03,69,51,7.99,CO,1658949227
ust-ilimsk,58.0006,102.6619,57.51,88,100,2.46,RU,1658949392
colares,38.7992,-9.4469,70.79,69,20,32.01,PT,1658949393
udachnyy,66.4167,112.4,70.45,88,94,3.29,RU,1658949395
haines junction,60.7522,-137.5108,57.15,58,100,2.3,CA,1658949396
tahe,52.3333,124.7333,65.86,97,100,2.84,CN,1658949398
estelle,29.8458,-90.1067,91.99,57,75,9.22,US,1658949399
gayny,60.3071,54.3241,55.69,78,42,1.77,RU,1658949401
paraipaba,-3.4394,-39.1483,84.04,59,73,13.11,BR,1658949402
matane,48.8286,-67.522,64.94,71,42,10.47,CA,1658949403
roebourne,-20.7833,117.1333,68.86,47,29,7.61,AU,1658949405
gornopravdinsk,60.05,69.9,53.64,81,96,5.28,RU,1658949406
port-cartier,50.0334,-66.8654,67.68,59,98,6.6,CA,1658949408
murgab,37.4966,61.9714,85.87,28,0,11.5,TM,1658949409
obo,5.3998,26.4869,68.81,96,100,0.27,CF,1658949411
wajima,37.4,136.9,76.05,87,98,3.44,JP,1658949412
banjar,-8.19,114.9675,73.56,88,9,4.14,ID,1658949414
huarmey,-10.0681,-78.1522,68.79,70,6,13.02,PE,1658949415
eskil,38.4017,33.4131,76.84,31,0,9.62,TR,1658949417
hong gai,20.956,107.0946,84.11,84,8,1.97,VN,1658949418
turkistan,43.0,68.0,83.39,27,0,9.31,KZ,1658949419
saint anthony,45.0205,-93.218,83.35,45,20,18.41,US,1658949422
ulety,51.3572,112.4849,52.95,94,100,8.7,RU,1658949424
tevaitoa,-16.7833,-151.5,77.9,77,11,23.02,PF,1658949425
tiarei,-17.5333,-149.3333,78.82,75,77,25.64,PF,1658949427
jambi,-1.6,103.6167,75.69,94,100,3.29,ID,1658949429
caledon,-34.23,19.4265,53.06,89,0,7.16,ZA,1658949430
berezniki,59.4152,56.8124,56.73,78,5,4.43,RU,1658949432
acarau,-2.8856,-40.12,82.45,68,47,18.72,BR,1658949433
viedma,-40.8135,-62.9967,49.73,91,100,16.37,AR,1658949435
karratha,-20.7377,116.8463,68.59,57,9,6.73,AU,1658949436
fairbanks,64.8378,-147.7164,54.09,86,75,6.91,US,1658949333
usogorsk,63.4106,48.6872,59.5,65,50,5.75,RU,1658949439
penzance,50.1186,-5.5371,63.28,62,100,2.8,GB,1658949441
sao filipe,14.8961,-24.4956,80.15,83,56,3.0,CV,1658949442
gazimurskiy zavod,51.5461,118.3266,56.55,96,7,3.4,RU,1658949444
los llanos de aridane,28.6585,-17.9182,71.35,78,20,16.11,ES,1658949445
bereda,43.2686,-7.5406,68.41,79,9,4.65,ES,1658949447
ciudad bolivar,8.1222,-63.5497,91.58,43,51,5.37,VE,1658949448
easton,40.6884,-75.2207,87.91,47,100,8.05,US,1658949329
linjiang,41.8069,126.9078,64.54,96,22,1.81,CN,1658949451
luanda,-8.8368,13.2343,68.74,90,86,11.92,AO,1658949311
karlskrona,56.1616,15.5866,59.45,85,95,8.28,SE,1658949311
dunedin,-45.8742,170.5036,45.36,93,100,9.06,NZ,1658949312
bronnoysund,65.4625,12.1997,50.0,87,75,7.0,NO,1658949336
nagykoros,47.0342,19.7786,78.75,36,0,4.61,HU,1658949457
muli,2.9167,73.5667,82.74,75,94,15.1,MV,1658949459
omsukchan,62.5333,155.8,49.32,61,33,4.88,RU,1658949460
bilibino,68.0546,166.4372,41.2,72,100,3.02,RU,1658949462
tessalit,20.1986,1.0114,103.46,13,100,9.73,ML,1658949463
emba,48.8264,58.1442,73.74,53,3,7.9,KZ,1658949465
xucheng,20.35,110.1288,80.28,85,20,6.29,CN,1658949466
sola,-13.8833,167.55,79.81,79,100,9.82,VU,1658949468
toledo,39.8333,-4.0,88.83,20,0,9.17,ES,1658949314
te anau,-45.4167,167.7167,42.21,98,100,2.71,NZ,1658949471
warri,5.5167,5.75,74.46,95,100,4.88,NG,1658949323
pontes e lacerda,-15.2261,-59.3353,97.27,17,6,5.39,BR,1658949474
savelugu,9.6244,-0.8253,79.14,75,38,7.38,GH,1658949476
salalah,17.0151,54.0924,77.09,94,100,6.91,OM,1658949477
rafaela,-31.2503,-61.4867,81.14,43,100,15.19,AR,1658949478
van,38.4924,43.3831,63.75,32,0,3.44,TR,1658949480
severnoye,56.3491,78.3619,62.91,96,100,6.51,RU,1658949481
kormilovka,55.0026,74.1028,69.49,62,100,5.64,RU,1658949483
minab,27.1467,57.0801,86.32,79,28,0.0,IR,1658949484
murliganj,25.9,86.9833,85.59,69,89,3.6,IN,1658949486
pontianak,-0.0333,109.3333,76.98,94,75,3.44,ID,1658949488
almaznyy,48.0448,40.045,74.16,49,94,5.06,RU,1658949489
penne,42.4538,13.9299,72.64,89,53,4.65,IT,1658949490
jiexiu,37.0244,111.9125,63.59,90,2,0.78,CN,1658949492
gomez plata,6.6818,-75.2191,65.19,92,93,2.75,CO,1658949493
la cruz,23.9167,-106.9,88.56,63,94,8.01,MX,1658949495
berdigestyakh,62.0989,126.6992,62.33,72,4,2.82,RU,1658949496
fare,-16.7,-151.0167,79.25,72,28,23.64,PF,1658949498
mogadishu,2.0371,45.3438,76.24,78,78,18.66,SO,1658949338
sioux lookout,50.1001,-91.917,62.67,67,100,16.11,CA,1658949358
kurchum,48.5722,83.6542,68.67,41,5,4.94,KZ,1658949503
pasni,25.2631,63.471,82.0,84,100,6.31,PK,1658949504
honningsvag,70.9821,25.9704,49.75,93,100,14.97,NO,1658949506
laguna de duero,41.5815,-4.7233,85.95,21,0,5.75,ES,1658949507
ahipara,-35.1667,173.1667,57.81,90,14,18.12,NZ,1658949509
terney,45.0503,136.6092,65.21,98,97,4.25,RU,1658949510
satka,55.0425,59.04,58.87,81,88,3.4,RU,1658949512
phuket,8.0,98.25,87.13,100,75,5.75,TH,1658949413
guerande,47.3291,-2.4283,71.02,65,94,10.74,FR,1658949514
lima,-12.0432,-77.0282,61.05,77,100,10.36,PE,1658949516
dinhata,26.1333,89.4667,82.38,80,93,2.35,IN,1658949517
ust-maya,60.4167,134.5333,60.75,82,11,1.68,RU,1658949519
zangakatun,39.8212,45.0406,65.23,65,3,11.56,AM,1658949520
camacha,33.0833,-16.3333,69.22,78,75,18.41,PT,1658949521
vega de alatorre,20.0333,-96.6333,88.59,59,29,15.17,MX,1658949523
ville-marie,47.3335,-79.433,74.84,50,100,9.73,CA,1658949360
ponta delgada,37.7333,-25.6667,75.92,83,20,17.27,PT,1658949526
rantauprapat,2.1,99.8333,74.37,89,100,1.79,ID,1658949527
sistranda,63.7256,8.834,51.76,73,100,14.58,NO,1658949529
isabela,6.7085,121.9711,78.71,83,100,2.82,PH,1658949530
kalangala,-0.3089,32.225,70.95,59,38,4.05,UG,1658949531
thanesar,29.9833,76.8167,82.92,75,73,8.03,IN,1658949533
loubomo,-4.1997,12.6739,69.67,77,64,6.2,CG,1658949536
goroka,-6.0834,145.3873,56.79,95,29,1.39,PG,1658949537
oranjemund,-28.55,16.4333,54.03,89,0,9.64,NA,1658949538
hanzhong,33.0728,107.0303,69.98,83,0,1.57,CN,1658949540
puerto madero,14.7208,-92.4215,88.0,79,75,6.91,MX,1658949541
kaharlyk,49.8623,30.8282,66.7,66,59,9.13,UA,1658949543
ornskoldsvik,63.2909,18.7153,59.95,55,40,13.8,SE,1658949410
daru,-9.0763,143.2092,76.59,90,96,17.47,PG,1658949547
rio grande,-32.035,-52.0986,69.91,83,33,5.39,BR,1658949322
hirara,24.8,125.2833,84.76,75,14,10.27,JP,1658949550
abaca,9.9204,124.5051,78.31,84,98,4.5,PH,1658949551
kupang,-10.1667,123.5833,74.53,74,28,13.89,ID,1658949552
singleton,-32.5667,151.1833,45.99,80,0,5.99,AU,1658949554
sheregesh,52.9209,87.9869,51.82,89,3,2.68,RU,1658949555
vesyegonsk,58.664,37.2604,68.7,78,8,4.59,RU,1658949557
dingle,10.9995,122.6711,75.99,88,94,2.8,PH,1658949558
baykit,61.67,96.37,62.13,98,100,2.13,RU,1658949560
udimskiy,61.1417,45.9144,61.47,83,7,5.48,RU,1658949561
dhidhdhoo,6.8833,73.1,81.63,77,9,15.99,MV,1658949563
natal,-5.795,-35.2094,82.62,69,20,16.11,BR,1658949363
antigonish,45.6169,-61.9986,81.14,61,53,5.99,CA,1658949554
jodhpur,26.2867,73.03,81.09,81,100,13.78,IN,1658949567
fort wellington,6.4,-57.6,84.34,67,29,6.26,GY,1658949568
krasnogorodsk,56.8357,28.2822,53.6,97,2,4.36,RU,1658949571
nantucket,41.2835,-70.0995,82.45,53,0,11.5,US,1658949422
yumen,40.2833,97.2,79.07,14,42,6.91,CN,1658949293
kindu,-2.95,25.95,77.02,62,96,5.03,CD,1658949576
aksarka,66.5606,67.7975,54.52,70,5,5.48,RU,1658949577
voznesenye,61.0106,35.4781,64.31,92,100,5.99,RU,1658949579
icod de los vinos,28.3724,-16.7119,76.77,56,23,13.27,ES,1658949580
verkhniy avzyan,53.5289,57.5372,60.13,98,87,2.44,RU,1658949582
pacific grove,36.6177,-121.9166,75.81,79,75,8.05,US,1658949368
eatonton,33.3268,-83.3885,97.23,56,86,6.24,US,1658949584
taft,31.7471,54.2088,84.15,42,75,18.41,IR,1658949587
nyurba,63.2842,118.3319,68.85,90,17,4.29,RU,1658949588
tura,25.5198,90.2201,74.84,89,86,3.24,IN,1658949591
itaituba,-4.2761,-55.9836,95.16,43,20,11.5,BR,1658949592
maroantsetra,-15.4333,49.7333,68.58,81,92,1.99,MG,1658949594
petropavlovsk-kamchatskiy,53.0452,158.6483,50.59,100,20,4.47,RU,1658949595
gold coast,-28.0,153.4333,53.67,70,40,6.91,AU,1658949597
tuxpan,19.55,-103.4,73.17,80,100,2.19,MX,1658949598
oranjestad,12.524,-70.027,80.55,83,20,13.8,AW,1658949600
